$GPGGA,014434.70,3112.2555880,N,12130.6712500,E,4,07,1.5,6.571,M,8.942,M,0.7,0016*79
$GPGGA,014434.70,3112.2566980,N,12130.6650820,E,4,07,1.5,6.571,M,8.942,M,0.7,0016*79
$GPGGA,014434.70,3112.2581860,N,12130.6586140,E,4,07,1.5,6.571,M,8.942,M,0.7,0016*79
$GPGGA,014434.70,3112.2598960,N,12130.6519540,E,4,07,1.5,6.571,M,8.942,M,0.7,0016*79
$GPGGA,014434.70,3112.2616900,N,12130.6449340,E,4,07,1.5,6.571,M,8.942,M,0.7,0016*79
$GPGGA,014434.70,3112.2634540,N,12130.6376560,E,4,07,1.5,6.571,M,8.942,M,0.7,0016*79
$GPGGA,014434.70,3112.2651160,N,12130.6305340,E,4,07,1.5,6.571,M,8.942,M,0.7,0016*79
$GPGGA,014434.70,3112.2666880,N,12130.6235860,E,4,07,1.5,6.571,M,8.942,M,0.7,0016*79
$GPGGA,014434.70,3112.2681100,N,12130.6172800,E,4,07,1.5,6.571,M,8.942,M,0.7,0016*79
$GPGGA,014434.70,3112.2694120,N,12130.6113460,E,4,07,1.5,6.571,M,8.942,M,0.7,0016*79
$GPGGA,014434.70,3112.2706240,N,12130.6058680,E,4,07,1.5,6.571,M,8.942,M,0.7,0016*79
$GPGGA,014434.70,3112.2717940,N,12130.6006720,E,4,07,1.5,6.571,M,8.942,M,0.7,0016*79
$GPGGA,014434.70,3112.2730240,N,12130.5954940,E,4,07,1.5,6.571,M,8.942,M,0.7,0016*79
$GPGGA,014434.70,3112.2742420,N,12130.5903520,E,4,07,1.5,6.571,M,8.942,M,0.7,0016*79
$GPGGA,014434.70,3112.2753880,N,12130.5853060,E,4,07,1.5,6.571,M,8.942,M,0.7,0016*79
$GPGGA,014434.70,3112.2764620,N,12130.5803980,E,4,07,1.5,6.571,M,8.942,M,0.7,0016*79
$GPGGA,014434.70,3112.2774820,N,12130.5755260,E,4,07,1.5,6.571,M,8.942,M,0.7,0016*79
$GPGGA,014434.70,3112.2784780,N,12130.5707140,E,4,07,1.5,6.571,M,8.942,M,0.7,0016*79
$GPGGA,014434.70,3112.2794980,N,12130.5659380,E,4,07,1.5,6.571,M,8.942,M,0.7,0016*79
$GPGGA,014434.70,3112.2804700,N,12130.5611980,E,4,07,1.5,6.571,M,8.942,M,0.7,0016*79
$GPGGA,014434.70,3112.2813580,N,12130.5564700,E,4,07,1.5,6.571,M,8.942,M,0.7,0016*79
$GPGGA,014434.70,3112.2821500,N,12130.5519940,E,4,07,1.5,6.571,M,8.942,M,0.7,0016*79
$GPGGA,014434.70,3112.2828700,N,12130.5477220,E,4,07,1.5,6.571,M,8.942,M,0.7,0016*79
$GPGGA,014434.70,3112.2835420,N,12130.5437080,E,4,07,1.5,6.571,M,8.942,M,0.7,0016*79
$GPGGA,014434.70,3112.2842140,N,12130.5395680,E,4,07,1.5,6.571,M,8.942,M,0.7,0016*79
$GPGGA,014434.70,3112.2849700,N,12130.5352600,E,4,07,1.5,6.571,M,8.942,M,0.7,0016*79
$GPGGA,014434.70,3112.2857560,N,12130.5309280,E,4,07,1.5,6.571,M,8.942,M,0.7,0016*79
$GPGGA,014434.70,3112.2865600,N,12130.5265660,E,4,07,1.5,6.571,M,8.942,M,0.7,0016*79
$GPGGA,014434.70,3112.2874360,N,12130.5221020,E,4,07,1.5,6.571,M,8.942,M,0.7,0016*79
$GPGGA,014434.70,3112.2884020,N,12130.5175240,E,4,07,1.5,6.571,M,8.942,M,0.7,0016*79
$GPGGA,014434.70,3112.2895720,N,12130.5127900,E,4,07,1.5,6.571,M,8.942,M,0.7,0016*79
$GPGGA,014434.70,3112.2908860,N,12130.5079480,E,4,07,1.5,6.571,M,8.942,M,0.7,0016*79
$GPGGA,014434.70,3112.2922780,N,12130.5031420,E,4,07,1.5,6.571,M,8.942,M,0.7,0016*79
$GPGGA,014434.70,3112.2938200,N,12130.4981140,E,4,07,1.5,6.571,M,8.942,M,0.7,0016*79
$GPGGA,014434.70,3112.2954280,N,12130.4928940,E,4,07,1.5,6.571,M,8.942,M,0.7,0016*79
$GPGGA,014434.70,3112.2970720,N,12130.4874280,E,4,07,1.5,6.571,M,8.942,M,0.7,0016*79
$GPGGA,014434.70,3112.2986980,N,12130.4818660,E,4,07,1.5,6.571,M,8.942,M,0.7,0016*79
$GPGGA,014434.70,3112.3003240,N,12130.4762320,E,4,07,1.5,6.571,M,8.942,M,0.7,0016*79
$GPGGA,014434.70,3112.3019680,N,12130.4706340,E,4,07,1.5,6.571,M,8.942,M,0.7,0016*79
$GPGGA,014434.70,3112.3037440,N,12130.4648140,E,4,07,1.5,6.571,M,8.942,M,0.7,0016*79
$GPGGA,014434.70,3112.3056160,N,12130.4591080,E,4,07,1.5,6.571,M,8.942,M,0.7,0016*79
$GPGGA,014434.70,3112.3075540,N,12130.4534260,E,4,07,1.5,6.571,M,8.942,M,0.7,0016*79
$GPGGA,014434.70,3112.3095100,N,12130.4479240,E,4,07,1.5,6.571,M,8.942,M,0.7,0016*79
$GPGGA,014434.70,3112.3114180,N,12130.4426680,E,4,07,1.5,6.571,M,8.942,M,0.7,0016*79
$GPGGA,014434.70,3112.3132120,N,12130.4377720,E,4,07,1.5,6.571,M,8.942,M,0.7,0016*79
$GPGGA,014434.70,3112.3149280,N,12130.4331100,E,4,07,1.5,6.571,M,8.942,M,0.7,0016*79
$GPGGA,014434.70,3112.3165240,N,12130.4287720,E,4,07,1.5,6.571,M,8.942,M,0.7,0016*79
$GPGGA,014434.70,3112.3180120,N,12130.4248000,E,4,07,1.5,6.571,M,8.942,M,0.7,0016*79
$GPGGA,014434.70,3112.3193320,N,12130.4212360,E,4,07,1.5,6.571,M,8.942,M,0.7,0016*79
$GPGGA,014434.70,3112.3206700,N,12130.4176840,E,4,07,1.5,6.571,M,8.942,M,0.7,0016*79
$GPGGA,014434.70,3112.3221340,N,12130.4138560,E,4,07,1.5,6.571,M,8.942,M,0.7,0016*79
$GPGGA,014434.70,3112.3237540,N,12130.4096980,E,4,07,1.5,6.571,M,8.942,M,0.7,0016*79
$GPGGA,014434.70,3112.3253740,N,12130.4054740,E,4,07,1.5,6.571,M,8.942,M,0.7,0016*79
$GPGGA,014434.70,3112.3271200,N,12130.4009020,E,4,07,1.5,6.571,M,8.942,M,0.7,0016*79
$GPGGA,014434.70,3112.3289260,N,12130.3961200,E,4,07,1.5,6.571,M,8.942,M,0.7,0016*79
$GPGGA,014434.70,3112.3308640,N,12130.3910020,E,4,07,1.5,6.571,M,8.942,M,0.7,0016*79
$GPGGA,014434.70,3112.3329100,N,12130.3855720,E,4,07,1.5,6.571,M,8.942,M,0.7,0016*79
$GPGGA,014434.70,3112.3350040,N,12130.3799680,E,4,07,1.5,6.571,M,8.942,M,0.7,0016*79
$GPGGA,014434.70,3112.3372120,N,12130.3739740,E,4,07,1.5,6.571,M,8.942,M,0.7,0016*79
$GPGGA,014434.70,3112.3394200,N,12130.3679200,E,4,07,1.5,6.571,M,8.942,M,0.7,0016*79
$GPGGA,014434.70,3112.3416760,N,12130.3618180,E,4,07,1.5,6.571,M,8.942,M,0.7,0016*79
$GPGGA,014434.70,3112.3439080,N,12130.3557700,E,4,07,1.5,6.571,M,8.942,M,0.7,0016*79
$GPGGA,014434.70,3112.3460860,N,12130.3499020,E,4,07,1.5,6.571,M,8.942,M,0.7,0016*79
$GPGGA,014434.70,3112.3481860,N,12130.3441540,E,4,07,1.5,6.571,M,8.942,M,0.7,0016*79
$GPGGA,014434.70,3112.3502980,N,12130.3383880,E,4,07,1.5,6.571,M,8.942,M,0.7,0016*79
$GPGGA,014434.70,3112.3524580,N,12130.3325140,E,4,07,1.5,6.571,M,8.942,M,0.7,0016*79
$GPGGA,014434.70,3112.3546660,N,12130.3264300,E,4,07,1.5,6.571,M,8.942,M,0.7,0016*79
$GPGGA,014434.70,3112.3568920,N,12130.3202500,E,4,07,1.5,6.571,M,8.942,M,0.7,0016*79
$GPGGA,014434.70,3112.3590340,N,12130.3141120,E,4,07,1.5,6.571,M,8.942,M,0.7,0016*79
$GPGGA,014434.70,3112.3610740,N,12130.3083700,E,4,07,1.5,6.571,M,8.942,M,0.7,0016*79
$GPGGA,014434.70,3112.3630060,N,12130.3028920,E,4,07,1.5,6.571,M,8.942,M,0.7,0016*79
$GPGGA,014434.70,3112.3648600,N,12130.2977020,E,4,07,1.5,6.571,M,8.942,M,0.7,0016*79
$GPGGA,014434.70,3112.3667260,N,12130.2924820,E,4,07,1.5,6.571,M,8.942,M,0.7,0016*79
$GPGGA,014434.70,3112.3685980,N,12130.2870880,E,4,07,1.5,6.571,M,8.942,M,0.7,0016*79
$GPGGA,014434.70,3112.3705840,N,12130.2815140,E,4,07,1.5,6.571,M,8.942,M,0.7,0016*79
$GPGGA,014434.70,3112.3725760,N,12130.2760360,E,4,07,1.5,6.571,M,8.942,M,0.7,0016*79
$GPGGA,014434.70,3112.3745860,N,12130.2705700,E,4,07,1.5,6.571,M,8.942,M,0.7,0016*79
$GPGGA,014434.70,3112.3765420,N,12130.2651460,E,4,07,1.5,6.571,M,8.942,M,0.7,0016*79
$GPGGA,014434.70,3112.3785040,N,12130.2598120,E,4,07,1.5,6.571,M,8.942,M,0.7,0016*79
$GPGGA,014434.70,3112.3804420,N,12130.2544840,E,4,07,1.5,6.571,M,8.942,M,0.7,0016*79
$GPGGA,014434.70,3112.3824220,N,12130.2490540,E,4,07,1.5,6.571,M,8.942,M,0.7,0016*79
$GPGGA,014434.70,3112.3844080,N,12130.2436240,E,4,07,1.5,6.571,M,8.942,M,0.7,0016*79
$GPGGA,014434.70,3112.3863580,N,12130.2383080,E,4,07,1.5,6.571,M,8.942,M,0.7,0016*79
$GPGGA,014434.70,3112.3883080,N,12130.2328360,E,4,07,1.5,6.571,M,8.942,M,0.7,0016*79
$GPGGA,014434.70,3112.3904020,N,12130.2270820,E,4,07,1.5,6.571,M,8.942,M,0.7,0016*79
$GPGGA,014434.70,3112.3924900,N,12130.2212260,E,4,07,1.5,6.571,M,8.942,M,0.7,0016*79
$GPGGA,014434.70,3112.3945480,N,12130.2153220,E,4,07,1.5,6.571,M,8.942,M,0.7,0016*79
$GPGGA,014434.70,3112.3966180,N,12130.2095560,E,4,07,1.5,6.571,M,8.942,M,0.7,0016*79
$GPGGA,014434.70,3112.3986220,N,12130.2038080,E,4,07,1.5,6.571,M,8.942,M,0.7,0016*79
$GPGGA,014434.70,3112.4006860,N,12130.1980120,E,4,07,1.5,6.571,M,8.942,M,0.7,0016*79
$GPGGA,014434.70,3112.4027740,N,12130.1922280,E,4,07,1.5,6.571,M,8.942,M,0.7,0016*79
$GPGGA,014434.70,3112.4048560,N,12130.1864080,E,4,07,1.5,6.571,M,8.942,M,0.7,0016*79
$GPGGA,014434.70,3112.4069920,N,12130.1804980,E,4,07,1.5,6.571,M,8.942,M,0.7,0016*79
$GPGGA,014434.70,3112.4091040,N,12130.1743600,E,4,07,1.5,6.571,M,8.942,M,0.7,0016*79
$GPGGA,014434.70,3112.4113960,N,12130.1682340,E,4,07,1.5,6.571,M,8.942,M,0.7,0016*79
$GPGGA,014434.70,3112.4136940,N,12130.1619940,E,4,07,1.5,6.571,M,8.942,M,0.7,0016*79
$GPGGA,014434.70,3112.4158780,N,12130.1559580,E,4,07,1.5,6.571,M,8.942,M,0.7,0016*79
$GPGGA,014434.70,3112.4180200,N,12130.1500900,E,4,07,1.5,6.571,M,8.942,M,0.7,0016*79
$GPGGA,014434.70,3112.4201080,N,12130.1443540,E,4,07,1.5,6.571,M,8.942,M,0.7,0016*79
$GPGGA,014434.70,3112.4221660,N,12130.1386120,E,4,07,1.5,6.571,M,8.942,M,0.7,0016*79
$GPGGA,014434.70,3112.4243020,N,12130.1327500,E,4,07,1.5,6.571,M,8.942,M,0.7,0016*79
$GPGGA,014434.70,3112.4265040,N,12130.1266240,E,4,07,1.5,6.571,M,8.942,M,0.7,0016*79
$GPGGA,014434.70,3112.4287780,N,12130.1203000,E,4,07,1.5,6.571,M,8.942,M,0.7,0016*79
$GPGGA,014434.70,3112.4311480,N,12130.1137300,E,4,07,1.5,6.571,M,8.942,M,0.7,0016*79
$GPGGA,014434.70,3112.4335600,N,12130.1070880,E,4,07,1.5,6.571,M,8.942,M,0.7,0016*79
$GPGGA,014434.70,3112.4360380,N,12130.1003440,E,4,07,1.5,6.571,M,8.942,M,0.7,0016*79
$GPGGA,014434.70,3112.4385400,N,12130.0935040,E,4,07,1.5,6.571,M,8.942,M,0.7,0016*79
$GPGGA,014434.70,3112.4410420,N,12130.0866460,E,4,07,1.5,6.571,M,8.942,M,0.7,0016*79
$GPGGA,014434.70,3112.4435080,N,12130.0798000,E,4,07,1.5,6.571,M,8.942,M,0.7,0016*79
$GPGGA,014434.70,3112.4459680,N,12130.0729600,E,4,07,1.5,6.571,M,8.942,M,0.7,0016*79
$GPGGA,014434.70,3112.4484340,N,12130.0661560,E,4,07,1.5,6.571,M,8.942,M,0.7,0016*79
$GPGGA,014434.70,3112.4509720,N,12130.0592740,E,4,07,1.5,6.571,M,8.942,M,0.7,0016*79
$GPGGA,014434.70,3112.4535340,N,12130.0523440,E,4,07,1.5,6.571,M,8.942,M,0.7,0016*79
$GPGGA,014434.70,3112.4560540,N,12130.0453360,E,4,07,1.5,6.571,M,8.942,M,0.7,0016*79
$GPGGA,014434.70,3112.4585260,N,12130.0384060,E,4,07,1.5,6.571,M,8.942,M,0.7,0016*79
$GPGGA,014434.70,3112.4609380,N,12130.0316380,E,4,07,1.5,6.571,M,8.942,M,0.7,0016*79
$GPGGA,014434.70,3112.4632780,N,12130.0250980,E,4,07,1.5,6.571,M,8.942,M,0.7,0016*79
$GPGGA,014434.70,3112.4655820,N,12130.0186660,E,4,07,1.5,6.571,M,8.942,M,0.7,0016*79
$GPGGA,014434.70,3112.4678140,N,12130.0123300,E,4,07,1.5,6.571,M,8.942,M,0.7,0016*79
$GPGGA,014434.70,3112.4699620,N,12130.0062340,E,4,07,1.5,6.571,M,8.942,M,0.7,0016*79
$GPGGA,014434.70,3112.4721220,N,12130.0001800,E,4,07,1.5,6.571,M,8.942,M,0.7,0016*79
$GPGGA,014434.70,3112.4742940,N,12129.9941260,E,4,07,1.5,6.571,M,8.942,M,0.7,0016*79
$GPGGA,014434.70,3112.4765020,N,12129.9879520,E,4,07,1.5,6.571,M,8.942,M,0.7,0016*79
$GPGGA,014434.70,3112.4787580,N,12129.9815680,E,4,07,1.5,6.571,M,8.942,M,0.7,0016*79
$GPGGA,014434.70,3112.4811520,N,12129.9749140,E,4,07,1.5,6.571,M,8.942,M,0.7,0016*79
$GPGGA,014434.70,3112.4836720,N,12129.9680440,E,4,07,1.5,6.571,M,8.942,M,0.7,0016*79
$GPGGA,014434.70,3112.4862760,N,12129.9608560,E,4,07,1.5,6.571,M,8.942,M,0.7,0016*79
$GPGGA,014434.70,3112.4889040,N,12129.9535660,E,4,07,1.5,6.571,M,8.942,M,0.7,0016*79
$GPGGA,014434.70,3112.4915740,N,12129.9460720,E,4,07,1.5,6.571,M,8.942,M,0.7,0016*79
$GPGGA,014434.70,3112.4942200,N,12129.9386680,E,4,07,1.5,6.571,M,8.942,M,0.7,0016*79
$GPGGA,014434.70,3112.4968420,N,12129.9313780,E,4,07,1.5,6.571,M,8.942,M,0.7,0016*79
$GPGGA,014434.70,3112.4994760,N,12129.9241480,E,4,07,1.5,6.571,M,8.942,M,0.7,0016*79
$GPGGA,014434.70,3112.5020680,N,12129.9170800,E,4,07,1.5,6.571,M,8.942,M,0.7,0016*79
$GPGGA,014434.70,3112.5044800,N,12129.9103000,E,4,07,1.5,6.571,M,8.942,M,0.7,0016*79
$GPGGA,014434.70,3112.5068800,N,12129.9036880,E,4,07,1.5,6.571,M,8.942,M,0.7,0016*79
$GPGGA,014434.70,3112.5092080,N,12129.8971660,E,4,07,1.5,6.571,M,8.942,M,0.7,0016*79
$GPGGA,014434.70,3112.5115180,N,12129.8906440,E,4,07,1.5,6.571,M,8.942,M,0.7,0016*79
$GPGGA,014434.70,3112.5138400,N,12129.8842240,E,4,07,1.5,6.571,M,8.942,M,0.7,0016*79
$GPGGA,014434.70,3112.5161380,N,12129.8778220,E,4,07,1.5,6.571,M,8.942,M,0.7,0016*79
$GPGGA,014434.70,3112.5184420,N,12129.8715040,E,4,07,1.5,6.571,M,8.942,M,0.7,0016*79
$GPGGA,014434.70,3112.5207100,N,12129.8653000,E,4,07,1.5,6.571,M,8.942,M,0.7,0016*79
$GPGGA,014434.70,3112.5229660,N,12129.8591560,E,4,07,1.5,6.571,M,8.942,M,0.7,0016*79
$GPGGA,014434.70,3112.5253900,N,12129.8529100,E,4,07,1.5,6.571,M,8.942,M,0.7,0016*79
$GPGGA,014434.70,3112.5280180,N,12129.8464660,E,4,07,1.5,6.571,M,8.942,M,0.7,0016*79
$GPGGA,014434.70,3112.5308260,N,12129.8395420,E,4,07,1.5,6.571,M,8.942,M,0.7,0016*79
$GPGGA,014434.70,3112.5336820,N,12129.8325520,E,4,07,1.5,6.571,M,8.942,M,0.7,0016*79
$GPGGA,014434.70,3112.5363160,N,12129.8257540,E,4,07,1.5,6.571,M,8.942,M,0.7,0016*79
$GPGGA,014434.70,3112.5387820,N,12129.8191720,E,4,07,1.5,6.571,M,8.942,M,0.7,0016*79
$GPGGA,014434.70,3112.5410740,N,12129.8129320,E,4,07,1.5,6.571,M,8.942,M,0.7,0016*79
$GPGGA,014434.70,3112.5434440,N,12129.8070700,E,4,07,1.5,6.571,M,8.942,M,0.7,0016*79
$GPGGA,014434.70,3112.5460900,N,12129.8013580,E,4,07,1.5,6.571,M,8.942,M,0.7,0016*79
$GPGGA,014434.70,3112.5490300,N,12129.7959160,E,4,07,1.5,6.571,M,8.942,M,0.7,0016*79
$GPGGA,014434.70,3112.5524500,N,12129.7907740,E,4,07,1.5,6.571,M,8.942,M,0.7,0016*79
$GPGGA,014434.70,3112.5562180,N,12129.7860160,E,4,07,1.5,6.571,M,8.942,M,0.7,0016*79
$GPGGA,014434.70,3112.5603700,N,12129.7817320,E,4,07,1.5,6.571,M,8.942,M,0.7,0016*79
$GPGGA,014434.70,3112.5648340,N,12129.7778800,E,4,07,1.5,6.571,M,8.942,M,0.7,0016*79
$GPGGA,014434.70,3112.5694660,N,12129.7745080,E,4,07,1.5,6.571,M,8.942,M,0.7,0016*79
$GPGGA,014434.70,3112.5741400,N,12129.7715800,E,4,07,1.5,6.571,M,8.942,M,0.7,0016*79
$GPGGA,014434.70,3112.5788200,N,12129.7691860,E,4,07,1.5,6.571,M,8.942,M,0.7,0016*79
$GPGGA,014434.70,3112.5836800,N,12129.7672720,E,4,07,1.5,6.571,M,8.942,M,0.7,0016*79
$GPGGA,014434.70,3112.5886420,N,12129.7658560,E,4,07,1.5,6.571,M,8.942,M,0.7,0016*79
$GPGGA,014434.70,3112.5936880,N,12129.7649860,E,4,07,1.5,6.571,M,8.942,M,0.7,0016*79
$GPGGA,014434.70,3112.5988780,N,12129.7645060,E,4,07,1.5,6.571,M,8.942,M,0.7,0016*79
$GPGGA,014434.70,3112.6041580,N,12129.7646020,E,4,07,1.5,6.571,M,8.942,M,0.7,0016*79
$GPGGA,014434.70,3112.6095340,N,12129.7651900,E,4,07,1.5,6.571,M,8.942,M,0.7,0016*79
$GPGGA,014434.70,3112.6148380,N,12129.7662880,E,4,07,1.5,6.571,M,8.942,M,0.7,0016*79
$GPGGA,014434.70,3112.6199920,N,12129.7679860,E,4,07,1.5,6.571,M,8.942,M,0.7,0016*79
$GPGGA,014434.70,3112.6250140,N,12129.7700800,E,4,07,1.5,6.571,M,8.942,M,0.7,0016*79
$GPGGA,014434.70,3112.6299460,N,12129.7727920,E,4,07,1.5,6.571,M,8.942,M,0.7,0016*79
$GPGGA,014434.70,3112.6346320,N,12129.7758340,E,4,07,1.5,6.571,M,8.942,M,0.7,0016*79
$GPGGA,014434.70,3112.6391440,N,12129.7793980,E,4,07,1.5,6.571,M,8.942,M,0.7,0016*79
$GPGGA,014434.70,3112.6433740,N,12129.7834000,E,4,07,1.5,6.571,M,8.942,M,0.7,0016*79
$GPGGA,014434.70,3112.6474360,N,12129.7878580,E,4,07,1.5,6.571,M,8.942,M,0.7,0016*79
$GPGGA,014434.70,3112.6511020,N,12129.7928320,E,4,07,1.5,6.571,M,8.942,M,0.7,0016*79
$GPGGA,014434.70,3112.6543780,N,12129.7981000,E,4,07,1.5,6.571,M,8.942,M,0.7,0016*79
$GPGGA,014434.70,3112.6572640,N,12129.8037940,E,4,07,1.5,6.571,M,8.942,M,0.7,0016*79
$GPGGA,014434.70,3112.6596940,N,12129.8097640,E,4,07,1.5,6.571,M,8.942,M,0.7,0016*79
$GPGGA,014434.70,3112.6617100,N,12129.8160220,E,4,07,1.5,6.571,M,8.942,M,0.7,0016*79
$GPGGA,014434.70,3112.6631680,N,12129.8224480,E,4,07,1.5,6.571,M,8.942,M,0.7,0016*79
$GPGGA,014434.70,3112.6641400,N,12129.8287900,E,4,07,1.5,6.571,M,8.942,M,0.7,0016*79
$GPGGA,014434.70,3112.6646620,N,12129.8352460,E,4,07,1.5,6.571,M,8.942,M,0.7,0016*79
$GPGGA,014434.70,3112.6646620,N,12129.8416240,E,4,07,1.5,6.571,M,8.942,M,0.7,0016*79
$GPGGA,014434.70,3112.6642480,N,12129.8480380,E,4,07,1.5,6.571,M,8.942,M,0.7,0016*79
$GPGGA,014434.70,3112.6633120,N,12129.8543080,E,4,07,1.5,6.571,M,8.942,M,0.7,0016*79
$GPGGA,014434.70,3112.6619500,N,12129.8605180,E,4,07,1.5,6.571,M,8.942,M,0.7,0016*79
$GPGGA,014434.70,3112.6601380,N,12129.8666500,E,4,07,1.5,6.571,M,8.942,M,0.7,0016*79
$GPGGA,014434.70,3112.6579480,N,12129.8724880,E,4,07,1.5,6.571,M,8.942,M,0.7,0016*79
$GPGGA,014434.70,3112.6552960,N,12129.8781880,E,4,07,1.5,6.571,M,8.942,M,0.7,0016*79
$GPGGA,014434.70,3112.6522360,N,12129.8832520,E,4,07,1.5,6.571,M,8.942,M,0.7,0016*79
$GPGGA,014434.70,3112.6487620,N,12129.8881660,E,4,07,1.5,6.571,M,8.942,M,0.7,0016*79
$GPGGA,014434.70,3112.6449100,N,12129.8926540,E,4,07,1.5,6.571,M,8.942,M,0.7,0016*79
$GPGGA,014434.70,3112.6408900,N,12129.8966440,E,4,07,1.5,6.571,M,8.942,M,0.7,0016*79
$GPGGA,014434.70,3112.6366360,N,12129.9002080,E,4,07,1.5,6.571,M,8.942,M,0.7,0016*79
$GPGGA,014434.70,3112.6324000,N,12129.9030580,E,4,07,1.5,6.571,M,8.942,M,0.7,0016*79
$GPGGA,014434.70,3112.6279300,N,12129.9053800,E,4,07,1.5,6.571,M,8.942,M,0.7,0016*79
$GPGGA,014434.70,3112.6233880,N,12129.9071020,E,4,07,1.5,6.571,M,8.942,M,0.7,0016*79
$GPGGA,014434.70,3112.6190440,N,12129.9083740,E,4,07,1.5,6.571,M,8.942,M,0.7,0016*79
$GPGGA,014434.70,3112.6145980,N,12129.9094420,E,4,07,1.5,6.571,M,8.942,M,0.7,0016*79
$GPGGA,014434.70,3112.6103800,N,12129.9101980,E,4,07,1.5,6.571,M,8.942,M,0.7,0016*79
$GPGGA,014434.70,3112.6060360,N,12129.9105460,E,4,07,1.5,6.571,M,8.942,M,0.7,0016*79
$GPGGA,014434.70,3112.6017040,N,12129.9105220,E,4,07,1.5,6.571,M,8.942,M,0.7,0016*79
$GPGGA,014434.70,3112.5973420,N,12129.9101620,E,4,07,1.5,6.571,M,8.942,M,0.7,0016*79
$GPGGA,014434.70,3112.5930160,N,12129.9094060,E,4,07,1.5,6.571,M,8.942,M,0.7,0016*79
$GPGGA,014434.70,3112.5889060,N,12129.9081040,E,4,07,1.5,6.571,M,8.942,M,0.7,0016*79
$GPGGA,014434.70,3112.5850960,N,12129.9064240,E,4,07,1.5,6.571,M,8.942,M,0.7,0016*79
$GPGGA,014434.70,3112.5815980,N,12129.9046120,E,4,07,1.5,6.571,M,8.942,M,0.7,0016*79
$GPGGA,014434.70,3112.5785800,N,12129.9027400,E,4,07,1.5,6.571,M,8.942,M,0.7,0016*79
$GPGGA,014434.70,3112.5757900,N,12129.9008800,E,4,07,1.5,6.571,M,8.942,M,0.7,0016*79
$GPGGA,014434.70,3112.5736480,N,12129.8991820,E,4,07,1.5,6.571,M,8.942,M,0.7,0016*79
$GPGGA,014434.70,3112.5718000,N,12129.8975080,E,4,07,1.5,6.571,M,8.942,M,0.7,0016*79
$GPGGA,014434.70,3112.5700540,N,12129.8956840,E,4,07,1.5,6.571,M,8.942,M,0.7,0016*79
$GPGGA,014434.70,3112.5684460,N,12129.8938060,E,4,07,1.5,6.571,M,8.942,M,0.7,0016*79
$GPGGA,014434.70,3112.5668320,N,12129.8917960,E,4,07,1.5,6.571,M,8.942,M,0.7,0016*79
$GPGGA,014434.70,3112.5652060,N,12129.8894680,E,4,07,1.5,6.571,M,8.942,M,0.7,0016*79
$GPGGA,014434.70,3112.5635800,N,12129.8869120,E,4,07,1.5,6.571,M,8.942,M,0.7,0016*79
$GPGGA,014434.70,3112.5620980,N,12129.8842480,E,4,07,1.5,6.571,M,8.942,M,0.7,0016*79
$GPGGA,014434.70,3112.5607480,N,12129.8815540,E,4,07,1.5,6.571,M,8.942,M,0.7,0016*79
$GPGGA,014434.70,3112.5594520,N,12129.8787940,E,4,07,1.5,6.571,M,8.942,M,0.7,0016*79
$GPGGA,014434.70,3112.5583840,N,12129.8760400,E,4,07,1.5,6.571,M,8.942,M,0.7,0016*79
$GPGGA,014434.70,3112.5574840,N,12129.8732740,E,4,07,1.5,6.571,M,8.942,M,0.7,0016*79
$GPGGA,014434.70,3112.5568060,N,12129.8707840,E,4,07,1.5,6.571,M,8.942,M,0.7,0016*79
$GPGGA,014434.70,3112.5562720,N,12129.8684800,E,4,07,1.5,6.571,M,8.942,M,0.7,0016*79
$GPGGA,014434.70,3112.5557920,N,12129.8662360,E,4,07,1.5,6.571,M,8.942,M,0.7,0016*79
$GPGGA,014434.70,3112.5554440,N,12129.8641480,E,4,07,1.5,6.571,M,8.942,M,0.7,0016*79
$GPGGA,014434.70,3112.5551440,N,12129.8620000,E,4,07,1.5,6.571,M,8.942,M,0.7,0016*79
$GPGGA,014434.70,3112.5548980,N,12129.8597200,E,4,07,1.5,6.571,M,8.942,M,0.7,0016*79
$GPGGA,014434.70,3112.5547240,N,12129.8574280,E,4,07,1.5,6.571,M,8.942,M,0.7,0016*79
$GPGGA,014434.70,3112.5545800,N,12129.8551720,E,4,07,1.5,6.571,M,8.942,M,0.7,0016*79
$GPGGA,014434.70,3112.5545320,N,12129.8529640,E,4,07,1.5,6.571,M,8.942,M,0.7,0016*79
$GPGGA,014434.70,3112.5545500,N,12129.8506840,E,4,07,1.5,6.571,M,8.942,M,0.7,0016*79
$GPGGA,014434.70,3112.5546520,N,12129.8482780,E,4,07,1.5,6.571,M,8.942,M,0.7,0016*79
$GPGGA,014434.70,3112.5548500,N,12129.8458540,E,4,07,1.5,6.571,M,8.942,M,0.7,0016*79
$GPGGA,014434.70,3112.5551020,N,12129.8432620,E,4,07,1.5,6.571,M,8.942,M,0.7,0016*79
$GPGGA,014434.70,3112.5554740,N,12129.8407000,E,4,07,1.5,6.571,M,8.942,M,0.7,0016*79
$GPGGA,014434.70,3112.5559300,N,12129.8382400,E,4,07,1.5,6.571,M,8.942,M,0.7,0016*79
$GPGGA,014434.70,3112.5565060,N,12129.8357740,E,4,07,1.5,6.571,M,8.942,M,0.7,0016*79
$GPGGA,014434.70,3112.5572080,N,12129.8332900,E,4,07,1.5,6.571,M,8.942,M,0.7,0016*79
$GPGGA,014434.70,3112.5580120,N,12129.8307280,E,4,07,1.5,6.571,M,8.942,M,0.7,0016*79
$GPGGA,014434.70,3112.5589660,N,12129.8282740,E,4,07,1.5,6.571,M,8.942,M,0.7,0016*79
$GPGGA,014434.70,3112.5599800,N,12129.8259640,E,4,07,1.5,6.571,M,8.942,M,0.7,0016*79
$GPGGA,014434.70,3112.5610000,N,12129.8238460,E,4,07,1.5,6.571,M,8.942,M,0.7,0016*79
$GPGGA,014434.70,3112.5619480,N,12129.8219800,E,4,07,1.5,6.571,M,8.942,M,0.7,0016*79
$GPGGA,014434.70,3112.5628780,N,12129.8202220,E,4,07,1.5,6.571,M,8.942,M,0.7,0016*79
$GPGGA,014434.70,3112.5638440,N,12129.8185660,E,4,07,1.5,6.571,M,8.942,M,0.7,0016*79
$GPGGA,014434.70,3112.5649360,N,12129.8168020,E,4,07,1.5,6.571,M,8.942,M,0.7,0016*79
$GPGGA,014434.70,3112.5661780,N,12129.8149240,E,4,07,1.5,6.571,M,8.942,M,0.7,0016*79
$GPGGA,014434.70,3112.5674740,N,12129.8130880,E,4,07,1.5,6.571,M,8.942,M,0.7,0016*79
$GPGGA,014434.70,3112.5688300,N,12129.8112220,E,4,07,1.5,6.571,M,8.942,M,0.7,0016*79
$GPGGA,014434.70,3112.5701440,N,12129.8095180,E,4,07,1.5,6.571,M,8.942,M,0.7,0016*79
$GPGGA,014434.70,3112.5714520,N,12129.8079160,E,4,07,1.5,6.571,M,8.942,M,0.7,0016*79
$GPGGA,014434.70,3112.5727300,N,12129.8064760,E,4,07,1.5,6.571,M,8.942,M,0.7,0016*79
$GPGGA,014434.70,3112.5740200,N,12129.8051140,E,4,07,1.5,6.571,M,8.942,M,0.7,0016*79
$GPGGA,014434.70,3112.5754180,N,12129.8037280,E,4,07,1.5,6.571,M,8.942,M,0.7,0016*79
$GPGGA,014434.70,3112.5770020,N,12129.8023000,E,4,07,1.5,6.571,M,8.942,M,0.7,0016*79
$GPGGA,014434.70,3112.5785620,N,12129.8009980,E,4,07,1.5,6.571,M,8.942,M,0.7,0016*79
$GPGGA,014434.70,3112.5801940,N,12129.7997800,E,4,07,1.5,6.571,M,8.942,M,0.7,0016*79
$GPGGA,014434.70,3112.5817240,N,12129.7987420,E,4,07,1.5,6.571,M,8.942,M,0.7,0016*79
$GPGGA,014434.70,3112.5831760,N,12129.7978300,E,4,07,1.5,6.571,M,8.942,M,0.7,0016*79
$GPGGA,014434.70,3112.5847720,N,12129.7969180,E,4,07,1.5,6.571,M,8.942,M,0.7,0016*79
